{
  "offices": [
    {
      "address": "Tucholskystra\u00dfe 2\n10117 Berlim\nAlemanha",
      "id": "berlin",
      "image": "https://lh3.googleusercontent.com/XcPyEMiSlLdZJq7nh3orGy3UqjtUHdhxXiwn52ZY47wfEChfZNDO78zDy9H0tBeegogZBZpIE0Q9mdVBGN4aQ0M5vfgz8ZWMEe43Mg",
      "lat": 52.5231079,
      "lng": 13.39203120000002,
      "name": "Berlim",
      "phone": "+49 30 303986300",
      "region": "europe"
    },
    {
      "address": "Carrera 11A 94 - 45\nCentro Empresarial Oxo Center\nBogot\u00e1, Col\u00f4mbia",
      "id": "bogota",
      "image": "https://lh3.googleusercontent.com/_APoV1zAR0g5_pXVDlT2ovgNQfr3zvjOuj4HFHViiy2ahyjapJMXlYRE48qYMyFTWXJybbK4psz-fQ82QhMhO0keYJ27I8tNTHe_ww",
      "lat": 4.678267,
      "lng": -74.046901,
      "name": "Bogot\u00e1",
      "phone": "+57 (1) 5939400",
      "region": "latin-america"
    },
    {
      "address": "2600 Pearl Street\nBoulder, CO 80302\nEstados Unidos",
      "id": "boulder",
      "image": "https://lh3.googleusercontent.com/lF9KBhOolmb958FFmMdLwFcedQAn1wEsVleBRrJQmyfhvD3u4lwCneR09ADJ9sG4tMBP5LDSLkn9bkbavzyqqql_0X7hj39dzl-n1w",
      "lat": 40.021693,
      "lng": -105.260139,
      "name": "Boulder",
      "phone": "+1 303-245-0086",
      "region": "north-america"
    },
    {
      "address": "2930 Pearl St\nBoulder, CO 80301\nEstados Unidos",
      "id": "boulder-pearl",
      "image": "https://lh3.googleusercontent.com/_JvBccdhLZSIxenZEubM2Qu8Eky6udmnwekH7BhjI1EUo8mCDXDHa0Z7mfNzvZtlmiXI6b6w8U-PY47oUQhPtvYazGS4mG8S61Rr",
      "lat": 40.021948,
      "lng": -105.253978,
      "name": "Boulder \u2014 Pearl Place",
      "phone": "+1 303-245-0086",
      "region": "north-america"
    },
    {
      "address": "3333 Walnut St\nBoulder CO, 80301\nEstados Unidos",
      "id": "boulder-walnut",
      "image": "https://lh3.googleusercontent.com/nGvIFmh9d2J68l-U7gYdQAqLZkLNNS_pqhNMtGopMujEpZEneMSH75NFr1WmXJC0GafDLyTVSpnqbuj5Tfjjjk889Zk23dIggqNN",
      "lat": 40.01993,
      "lng": -105.24936,
      "name": "Boulder \u2014 Walnut",
      "phone": "+1 303-245-0086",
      "region": "north-america"
    },
    {
      "address": "Alicia M. De Justo 350, 2nd Floor\nBuenos Aires, C1107AAH\nArgentina",
      "id": "buenos-aires",
      "image": "https://lh3.googleusercontent.com/08n-ZBH23cWYWAbRo7_uZ6VObzDOLdfvxiAy4vZvX2I_FBn4vlUl_qiwALWBMUp7gQ4LEkj7aW6gB_jdJWNmnsmYEKbWzNsh0EaYpw",
      "lat": -34.602734,
      "lng": -58.366992,
      "name": "Buenos Aires",
      "phone": "+54-11-5530-3000",
      "region": "latin-america"
    },
    {
      "address": "355 Main Street\nCambridge, MA 02142\nEstados Unidos",
      "id": "cambridge",
      "image": "https://lh3.googleusercontent.com/OLL4nJ-esDQ3JFh2XpWSpX8WnO69yzFpYPWIy9yL_2WFapf74z_ZYvfqb4XkF0_hT2rCi3pzN2Y-yglQ-jWMw3u89YKwn4GfdT7FfQ",
      "lat": 42.362757,
      "lng": -71.087109,
      "name": "Cambridge",
      "phone": "+1 617-575-1300",
      "region": "north-america"
    },
    {
      "address": "Skt. Petri Passage 5\n1165 Copenhagen\nDinamarca",
      "id": "copenhagen",
      "image": "https://lh3.googleusercontent.com/SNSbrYGI_ZBuCl_S8aRh63IIta895tqIUUX3ZT0FWmK7ykhJRy_HNtzoud7XrohnjnSAkuXg9YykkFZqbvkRiZQC7osXrZzGerWdmG8",
      "lat": 55.680452,
      "lng": 12.570071,
      "name": "Copenhague",
      "phone": "+45 3370 2600",
      "region": "europe"
    },
    {
      "address": "TECOM Zone, Dubai Internet City\nDubai, Emirados \u00c1rabes Unidos",
      "id": "dubai",
      "image": "https://lh3.googleusercontent.com/xw0iylnw3b3-qxwoNzLSLJlAAPtkF1KONnIoBTDHtURr04fzH9DeO08GYvEsKYQtE9GCdOMTk_s08H6-btSquKo3moeILfc3Kpu4MA",
      "lat": 25.0929,
      "lng": 55.1591,
      "name": "Dubai",
      "phone": "+971 4 4509500",
      "region": "africa-middle-east"
    },
    {
      "address": "Taikoo Hui Tower 1, No.383 Tianhe Road\nCant\u00e3o, 510620\nChina",
      "id": "guangzhou",
      "image": "https://lh3.googleusercontent.com/BjYQfVMor1QT5hAkc7DcN6_MJdwaySHY6VJ6IY7mQGJRdXjFZhiP-t4MV_QUbp0tBeuYvuMw3nUetTiI-vFl6-BcialJhhurhFrDVeY",
      "lat": 23.1339728,
      "lng": 113.3332488,
      "name": "Guangzhou",
      "phone": "",
      "region": "asia-pacific"
    },
    {
      "address": "Sector 15, Part II Village Silokhera\nGurgaon 122001\n\u00cdndia",
      "id": "gurgaon",
      "image": "https://lh3.googleusercontent.com/8plKBiWKmwllCXePad0JJ22u1GG7Qe1hveXlx_xJ87XoiQpclQubwxyGxcDU6tkatpb3oi9MYXjm2XszFi5kGn1flfTtjv6MycBWrQ",
      "lat": 28.460581,
      "lng": 77.048194,
      "name": "Gurgaon",
      "phone": "+91-12-44512900",
      "region": "asia-pacific"
    },
    {
      "address": "Building 30\nMATAM, Advanced Technology Center\nHaifa, 3190500\nIsrael ",
      "id": "haifa",
      "image": "https://lh3.googleusercontent.com/syKfT9cVMzLi0d4_DSiJztWGwcmWct6IEbpAApEFk_G8ym0xyLLxMBT484zROIOZHMSe9N1o-QQrCAqVWfKRSY6EOeJY9Qa1ftwb",
      "lat": 32.78897,
      "lng": 34.958432,
      "name": "Haifa",
      "phone": "+972-74-746-6245",
      "region": "africa-middle-east"
    },
    {
      "address": "ABC-Strasse 19\n20354 Hamburgo\nAlemanha",
      "id": "hamburg",
      "image": "https://lh3.googleusercontent.com/66R0svr2--6zNOnrqf6JbeZ-bF39bRfHpExjcTlE_AIlPEPk8jO1LjF39FUbDnJB1gh_FiRFX6aCRg4ACjYRbDqb5lf9PdV6qY4S",
      "lat": 53.553752,
      "lng": 9.986229,
      "name": "Hamburgo",
      "phone": "49 40-80-81-79-000",
      "region": "europe"
    },
    {
      "address": "1 Matheson Street\nCauseway Bay, Hong Kong",
      "id": "hong-kong",
      "image": "https://lh3.googleusercontent.com/-Ult8_R6TfQAk16CfjSfl6PLypQBYohUjNjE6xeeektZsrP8XwTv7PnVVE-5Ueh3I-2hPnAdRGg6XrMn9IwI7W1h5LJKtlMVe93Wfw",
      "lat": 22.278203,
      "lng": 114.18176,
      "name": "Hong Kong",
      "phone": "+852-3923-5400",
      "region": "asia-pacific"
    },
    {
      "address": "Survey No. 13, DivyaSree Omega\nKondapur Village\nHyderabad, Telangana 500084\n\u00cdndia",
      "id": "hyderabad",
      "image": "https://lh3.googleusercontent.com/LAEnc0tzA-JSb5XM5oct5paX98QK9zh_aqa_qKcjAoXo2MChgOjdj_EZpgIZsVAvEY-I0bmMmhCBb5gkoVN4ebqCG9ZfjCbo_stJaw",
      "lat": 17.458461,
      "lng": 78.372452,
      "name": "Hyderabad",
      "phone": "+91-40-6619-3000",
      "region": "asia-pacific"
    },
    {
      "address": "19510 Jamboree Road\nIrvine, CA 92612\nEstados Unidos",
      "id": "irvine",
      "image": "https://lh3.googleusercontent.com/LWGkhXkRRzWnMlNy_Ps74-VTxB2ISXK0Kkick1SujTLYvNAUqo9_HR7SILSZZsiaiGWsXtx7dR5Hz9Q5psu1MWP9BHtDuGYc_hz_eg",
      "lat": 33.658792,
      "lng": -117.859322,
      "name": "Irvine",
      "phone": "+1 949-794-1600",
      "region": "north-america"
    },
    {
      "address": "Eski Buyukdere Caddesi No: 209\n34394\nIstambul, Turquia",
      "id": "istanbul",
      "image": "https://lh3.googleusercontent.com/_mdN7z1Q-9fKgpHTb1rQJosllxqn7glRJ_G2enX4WPmImuJjLHKw-JBZ8z5B9vMSo12SexGBOD1i2NHXqEy4OaOJekn0g3Fp3bDk_Q",
      "lat": 41.081697,
      "lng": 29.00859,
      "name": "Istambul",
      "phone": "",
      "region": "africa-middle-east"
    },
    {
      "address": "Pacific Century Place Tower Level 45 SCBD Lot 10,\nJl. Jend. Sudirman No.53,\nRT.5/RW.3, Senayan, Kby. Baru,\nKota Jakarta Selatan,\nDaerah Khusus Ibukota Jacarta 12190, \nIndon\u00e9sia",
      "id": "jakarta",
      "image": "https://lh3.googleusercontent.com/JEaMUfOUq6bxN7jeIN1z2me5-JvlLRkrFJgf_A0GvqtOquU6Tfjg0ecKeR_Ck27L0S1zC2t_4I6nVP6pBdBtSKst7tkJEoC7LyYq",
      "lat": -6.227664,
      "lng": 106.808471,
      "name": "Jacarta",
      "phone": "",
      "region": "asia-pacific"
    },
    {
      "address": "35 Ballyclare Drive Building E\nJoanesburgo\n2191, \u00c1frica do Sul",
      "id": "johannesburg",
      "image": "https://lh3.googleusercontent.com/EDxefwSgeKyh8zN9VUUGhu3hiBqH7Z3UEOXfZeij7YnUhZLqLElu8dhi4FziOepRun-fjfwIWdf5W8CTG5ZSYMu4k8z9QZjTgjQRuQ",
      "lat": -26.0734457,
      "lng": 28.032035,
      "name": "Joanesburgo",
      "phone": "",
      "region": "africa-middle-east"
    },
    {
      "address": "Axiata Tower\nNo. 9, Jalan Stesen Sentral 5\n50470 Kuala Lumpur\nMal\u00e1sia",
      "id": "kuala-lumpur",
      "image": "https://lh3.googleusercontent.com/c5kAdRoyejY1Z5i9A3hYKfIG55GrKdAc0iJjH-gYo-tWd3JUksvsfZx7LU5yzay4HJmxCQEir2cejbZ2LurYfKL_emC9e9PCDVxd",
      "lat": 3.133445,
      "lng": 101.684609,
      "name": "Kuala Lampur",
      "phone": "",
      "region": "asia-pacific"
    },
    {
      "address": "Belgrave House\n76 Buckingham Palace Road\nLondres SW1W 9TQ\nReino Unido",
      "id": "london-bel",
      "image": "https://lh3.googleusercontent.com/bLxZNCaDE2Fdj7woV_9JUJEUfUvTrhI57jHNEeW-OenTspzM21miwz1gGydzZ2Ke_vfRdkqdo4dyN2mJCntC2p4qvRUyipPWppAC9g",
      "lat": 51.494961,
      "lng": -0.146652,
      "name": "Londres \u2014 BEL",
      "phone": "+44-20-7031-3001",
      "region": "europe"
    },
    {
      "address": "811 E Washington Ave\nSuite 700\nMadison, WI 53703\nEstados Unidos",
      "id": "madison",
      "image": "https://lh3.googleusercontent.com/sQDFJpbQl4EVGfdpHsw_24mxsnUNAnDs6f-00QCj0g_Z38CEqjG4PuLPoS_T6eTOPV3QXX907Kap_TkaE3cEG4fhJWIoWsZELIGyvw",
      "lat": 43.081091,
      "lng": -89.374619,
      "name": "Madison",
      "phone": "+1 608-669-9841",
      "region": "north-america"
    },
    {
      "address": "Plaza Pablo Ruiz Picasso, I\nMadri 28020\nEspanha",
      "id": "madrid",
      "image": "https://lh3.googleusercontent.com/x36CdPxkwxxctp0wvDYfTjgTzNgMiZV0xoKeLMwHzdccpJGYUA6a61fSeX1_Rt-lfofMjfUwAhFxd7DbjsE8_393plkTly-T5YkpCA",
      "lat": 40.4505331,
      "lng": -3.6931161,
      "name": "Madri",
      "phone": "+34 91-748-6400",
      "region": "europe"
    },
    {
      "address": "161 Collins Street,\nMelbourne VIC 3000,\nAustr\u00e1lia",
      "id": "melbourne",
      "image": "https://lh3.googleusercontent.com/U_5KiB8x7T-Rrdp90ygnO1kbZxiWJz4G6CbD6_51CjH5zaMP23upWELryFOe99k_AqlPZschCY7Nx--wYufcIV54HnjGcP3lf28X1A",
      "lat": -37.815328,
      "lng": 144.968737,
      "name": "Melbourne",
      "phone": "",
      "region": "asia-pacific"
    },
    {
      "address": "Google Mexico, S. de R.L. de C.V.\nMontes Urales 445\nLomas de Chapultepec\nCidade do M\u00e9xico 11000, M\u00e9xico",
      "id": "mexico-city",
      "image": "https://lh3.googleusercontent.com/P_U5ECZJ--t8khoKFxoeeJwa7PZy-3TriZbit5sRJDUdupf3NZRJegsnB4ucLqdLEV3De41fmByckDDC6uHMI82cXIFp4C1WwI1a1g",
      "lat": 19.4283793,
      "lng": -99.2065518,
      "name": "Cidade do M\u00e9xico",
      "phone": "+52 55-5342-8400",
      "region": "latin-america"
    },
    {
      "address": "1600 Amphitheatre Parkway\nMountain View, CA 94043\nEstados Unidos",
      "id": "mountain-view",
      "image": "https://lh3.googleusercontent.com/Mh8P8gvVwO7NOXfg8anxwPXRy5oKZJ6Cz_LbFfOVdeIsdDfogmMcMsiW7HD7HD2NOINzAPH_v8dALWSuDiiTjCjRnenI7B3l6Pg4yw",
      "lat": 37.421512,
      "lng": -122.084101,
      "name": "Mountain View",
      "phone": "",
      "region": "north-america"
    },
    {
      "address": "3 North Avenue\nMaker Maxity, Bandra Kurla Complex\nBandra East\nMumbai, Maharashtra 400051\n\u00cdndia",
      "id": "mumbai",
      "image": "https://lh3.googleusercontent.com/twldrlVORn84fYsOLwNLabfRPQYX-dJAzJtpam-Ea4D7QIY1pvMa9FCMbpjUFA8uniBg6XAh8pMijf9qnjmEm4d17UFkwRGToiv5Ug",
      "lat": 19.054364,
      "lng": 72.850591,
      "name": "Mumbai",
      "phone": "+91-22-6611-7150",
      "region": "asia-pacific"
    },
    {
      "address": "Erika-Mann-Str. 33\n80636 Munique\nAlemanha",
      "id": "munich",
      "image": "https://lh3.googleusercontent.com/sVZqxencTTD84raIgMWd5SbmXZTvQmwUzxj6IakbIGuAua5JDu-Q64uJE-cm3TYeSjKVQo7VSwIODVpwswjtrpwBUvXTa5MDFXoNAw",
      "lat": 48.14305556,
      "lng": 11.54083333,
      "name": "Munique",
      "phone": "",
      "region": "europe"
    },
    {
      "address": "Stroupeznickeho str. 3191/17\nPraga, Rep\u00fablica Tcheca\n150 00",
      "id": "prague",
      "image": "https://lh3.googleusercontent.com/jVNKH2mzDQ4Zu1-1G80-nDvLHYE9dmeetv43WG3zo7-dQWJoX1ghtXvviZHDLRG-ScqA804I2guuExY-8pkzIdkYlU28QGOB8Jkkiw",
      "lat": 50.070259,
      "lng": 14.402642,
      "name": "Praga",
      "phone": "",
      "region": "europe"
    },
    {
      "address": "901 Cherry Avenue\nSan Bruno, CA 94066\nEstados Unidos",
      "id": "san-bruno",
      "image": "https://lh3.googleusercontent.com/zcy-Un_QDZfx7nTlImk-jCocxSUjQAQ4SS0eVdBuNRZz3Nyb5WK_2oGwYpnBEdqjIcv_b-umq_akpWBEylaEp-wXk3pj9-gu6Ko9Igs",
      "lat": 37.62816,
      "lng": -122.426491,
      "name": "San Bruno",
      "phone": "",
      "region": "north-america"
    },
    {
      "address": "Costanera Sur Rio 2730 \nLas Condes, Santiago\nChile",
      "id": "santiago",
      "image": "https://lh3.googleusercontent.com/KrMbZzxFsAcNmYg8BQL_qBAekN1bNNJGo1aar8nkFhYXYDYOBmwJc2x1XElkDdIqLdedU5V7QKTGxXne8-f-qAW_bOy1FUqmJ8JM",
      "lat": -33.413383,
      "lng": -70.605665,
      "name": "Santiago",
      "phone": "",
      "region": "latin-america"
    },
    {
      "address": "Av. Brigadeiro Faria Lima, 3477 \nS\u00e3o Paulo\n04538-133, Brasil",
      "id": "sao-paulo",
      "image": "https://lh3.googleusercontent.com/MwcGyEZBKkmoycVLcpl_U3gdIJBoWDU8u2kUNq57DmZVkWDyraoaZyQC0HOiFQvNHjVugEiVTWsy-poAsNfDLoSkJ5RoTBi1Hpd4GcI",
      "lat": -23.586479,
      "lng": -46.682078,
      "name": "S\u00e3o Paulo",
      "phone": "",
      "region": "latin-america"
    },
    {
      "address": "Google Korea LLC.\n22nd Floor, Gangnam Finance Center\n152 Teheran-ro, Gangnam-gu\nSeul 06236\nCoreia do Sul",
      "id": "seoul",
      "image": "https://lh3.googleusercontent.com/i8rfvJIUNpLBkmWWSoetUzFGHUd_RaulLh8F3EHme3FMTUtDs8EVWsrFLuaemh1Zd60p5ndCcKq8-ZQN8eibbua-YNzlzQ8AKtHFzrQ",
      "lat": 37.500295,
      "lng": 127.036843,
      "name": "Seul",
      "phone": "+82-2-531-9000",
      "region": "asia-pacific"
    },
    {
      "address": "100 Century Avenue, Pudong\nXangai 200120\nChina",
      "id": "shanghai",
      "image": "https://lh3.googleusercontent.com/wFCKLAJvrAoE_GiXqRNa0w4Rsr0iY_SyMGbO2jnIhLXGanYs1c5_BPE8TxQJw-e14uaLDHjY772V-Vv-Kf3GmrIRSlHjoV9yD339wRQ",
      "lat": 31.23464,
      "lng": 121.507662,
      "name": "Xangai",
      "phone": "+86-21-6133-7666",
      "region": "asia-pacific"
    },
    {
      "address": "70 Pasir Panjang Road, #03-71, \nMapletree Business City \nCingapura 117371",
      "id": "singapore",
      "image": "https://lh3.googleusercontent.com/--5H57B8aG4-DX9s79Spo3ygrsI9NMFnZo1uTZzs5s5AeeOvmiy81k__tu9r7JbRTTLzryK-oUy0UREclmD_qfV81VvaT4K9jJa8gg",
      "lat": 1.276466,
      "lng": 103.798965,
      "name": "Cingapura",
      "phone": "+65 6521-8000",
      "region": "asia-pacific"
    },
    {
      "address": "48 Pirrama Road\nSydney, NSW 2009\nAustr\u00e1lia ",
      "id": "sydney",
      "image": "https://lh3.googleusercontent.com/03Hp4ZwQHs_rWLEWQtrOc62hEHzffD_uoZFCbo56eoeLyZ3L89-Fy5Dd8WcmrGFGK31QC_hZqzuU7f9QhxqjckE7BSLo_arwWjCH1w",
      "lat": -33.866638,
      "lng": 151.195672,
      "name": "Sydney",
      "phone": "+61 2 9374 4000",
      "region": "asia-pacific"
    },
    {
      "address": "No. 7 XinYi Road Section 5, Taip\u00e9\nTaiwan",
      "id": "taipei",
      "image": "https://lh3.googleusercontent.com/h19TQz36F4jY_ZfQxuP5F-THZbl4nAIGz473uFfLqzD_6kpw-r3b6M_Wbna5QvvymqZ-wdnhkLCRt63Pypnc9GyawNqMlQwM1_BYbg",
      "lat": 25.033447,
      "lng": 121.564901,
      "name": "Taipei",
      "phone": "+886 2 8729 6000",
      "region": "asia-pacific"
    },
    {
      "address": "Yigal Alon 98\nTel Aviv, 6789141\nIsrael ",
      "id": "tel-aviv",
      "image": "https://lh3.googleusercontent.com/BZxU1dJCWFmtVeBqVYFC8SmSzX4CCzO5eedosW1s7sv2b2HoKwEno15vICfeQdsc_BGIaysKb8VyF64IB9hbFzMZ_MlQDJhP7kfF",
      "lat": 32.070043,
      "lng": 34.794087,
      "name": "Tel Aviv",
      "phone": "+972-74-746-6453",
      "region": "africa-middle-east"
    },
    {
      "address": "Roppongi Hills Mori Tower\n6-10-1 Roppongi\nMinato-ku, T\u00f3quio 106-6126\nJap\u00e3o",
      "id": "tokyo-rpg",
      "image": "https://lh3.googleusercontent.com/i7PqriAmbeqB7KQ4h_8K0T60DD-oAoz7bvvjlB4vx2267l9QHfKBHb7WUMSutYd88Xu4TRwWqIquL05bYcpTyU_58gWp8Ja2Xo2zOfM",
      "lat": 35.66047,
      "lng": 139.729231,
      "name": "T\u00f3quio \u2014 RPG",
      "phone": "+81-3-6384-9000",
      "region": "asia-pacific"
    },
    {
      "address": "Shibuya Stream\n3-21-3 Shibuya\nShibuya-ku, T\u00f3quio 150-0002\nJap\u00e3o",
      "id": "tokyo-strm",
      "image": "https://lh3.googleusercontent.com/GzaUJcEqlixelFX8dg1qcLPwAb4RpEXr3JMxyxpgSTWL17Gso_aq3NeMtQPES7f_JdIrGr9YTBSt08XgNAeoLSkxr3Ue_J0cW3VMCw",
      "lat": 35.6572564,
      "lng": 139.7028246,
      "name": "T\u00f3quio \u2014 STRM",
      "phone": "+81-3-6384-9000",
      "region": "asia-pacific"
    },
    {
      "address": "Graben 19\n1010 Viena\n\u00c1ustria",
      "id": "vienna",
      "image": "https://lh3.googleusercontent.com/roYQN_TnYd_fP0FCdZxA6lMLbp-h7PyPlDBKwVdfVWKkOCxmLjFHqm-n7hrcakcXHS1FzjXW5XWF_MApzuGIrvy2cewCYd7Z9q5MUw",
      "lat": 48.209351,
      "lng": 16.368419,
      "name": "Viena",
      "phone": "",
      "region": "europe"
    }
  ],
  "regions": [
    {
      "coords": { "lat": 2.9660291, "lng": 1.3271339 },
      "id": "africa-middle-east",
      "name": "\u00c1frica e Oriente M\u00e9dio",
      "zoom": 3.0
    },
    {
      "coords": { "lat": 0.0524811, "lng": 127.6560787 },
      "id": "asia-pacific",
      "name": "\u00c1sia-Pac\u00edfico",
      "zoom": 3.0
    },
    {
      "coords": { "lat": 46.1352815, "lng": 7.4033438 },
      "id": "europe",
      "name": "Europa",
      "zoom": 4.0
    },
    {
      "coords": { "lat": -17.5554497, "lng": -99.2316195 },
      "id": "latin-america",
      "name": "Am\u00e9rica Latina",
      "zoom": 3.0
    },
    {
      "coords": { "lat": 45.7128252, "lng": -97.1547448 },
      "id": "north-america",
      "name": "Am\u00e9rica do Norte",
      "zoom": 4.0
    }
  ]
}
